Location;Longitude;Latitude;Country;Local.update.time;Timezone;Temperature;Temp.feels;Temp.min;Temp.max;Pressure;Humidity;Wind.speed;Wind.direction;Cloudiness;Visibility;Condition;Rain.1h;Snow.1h;Sunrise;Sunset
Tempel;111.45;-6.79;ID;2020-05-26 19:30:17;7;26.65;31.02;26.65;26.65;1012;87;2.32;34.0;90;;hujan sedang;3.75;;2020-05-26 05:38:23;2020-05-26 17:24:27
Sleman;110.36;-7.72;ID;2020-05-26 19:18:59;7;27.0;31.68;27.0;27.0;1011;83;1.5;180.0;40;6000.0;awan tersebar;;;2020-05-26 05:44:12;2020-05-26 17:27:21
Denpasar;115.22;-8.65;ID;2020-05-26 20:23:50;8;29.0;36.38;29.0;29.0;1011;89;0.5;;40;10000.0;awan tersebar;;;2020-05-26 06:26:13;2020-05-26 18:06:27
London;-0.13;51.51;GB;2020-05-26 13:21:56;1;24.16;20.71;22.22;25.56;1035;31;3.6;260.0;79;10000.0;awan pecah;;;2020-05-26 04:54:20;2020-05-26 21:01:12
Merauke;140.33;-8.47;ID;2020-05-26 21:23:55;9;25.68;26.59;25.68;25.68;1014;86;6.32;119.0;38;;awan tersebar;;;2020-05-26 05:45:29;2020-05-26 17:26:17
California;-76.51;38.3;US;2020-05-26 08:22:55;-4;16.52;17.66;16.0;16.67;1023;100;1.5;20.0;90;805.0;kabut;;;2020-05-26 05:47:01;2020-05-26 20:19:37
Paris;2.35;48.85;FR;2020-05-26 14:19:14;2;23.81;18.81;23.33;24.44;1034;38;6.7;70.0;73;10000.0;awan pecah;;;2020-05-26 05:56:21;2020-05-26 21:39:21
